{
"type": "FeatureCollection",
"name": "Largest Utilities",
"crs": { "type": "name", "properties": { "name": "urn:ogc:def:crs:OGC:1.3:CRS84" } },
"features": [
{ "type": "Feature", "properties": { "Utility": "City of Flint", "Number": "1101", "Address": "S Saginaw St", "City": "Flint", "State": "MI", "Country": "USA", "Owner": "Public", "addrtype": "route", "addrlocat": "GEOMETRIC_CENTER" }, "geometry": { "type": "Point", "coordinates": [ -83.6762439, 42.9895488 ] } },
{ "type": "Feature", "properties": { "Utility": "Padre Dam MWD", "Number": "9300", "Address": "Fanita Parkway", "City": "Santee", "State": "CA", "Country": "USA", "Owner": "Public", "addrtype": "route", "addrlocat": "GEOMETRIC_CENTER" }, "geometry": { "type": "Point", "coordinates": [ -117.0056838, 32.8561998 ] } },
{ "type": "Feature", "properties": { "Utility": "PA American Water - Norristown", "Number": "171", "Address": "W Johnson Hwy", "City": "Norristown", "State": "PA", "Country": "USA", "Owner": "Private", "addrtype": "route", "addrlocat": "GEOMETRIC_CENTER" }, "geometry": { "type": "Point", "coordinates": [ -75.3306125, 40.1331818 ] } },
{ "type": "Feature", "properties": { "Utility": "Goleta Water District", "Number": "4699", "Address": "Hollister Avenue", "City": "Goleta", "State": "CA", "Country": "USA", "Owner": "Public", "addrtype": "route", "addrlocat": "GEOMETRIC_CENTER" }, "geometry": { "type": "Point", "coordinates": [ -119.842399, 34.4326164 ] } },
{ "type": "Feature", "properties": { "Utility": "CAL AM Water - Monterey", "Number": "1299", "Address": "Jacks Road", "City": "Monterey", "State": "CA", "Country": "USA", "Owner": "Private", "addrtype": "route", "addrlocat": "GEOMETRIC_CENTER" }, "geometry": { "type": "Point", "coordinates": [ -121.8651023, 36.5781392 ] } },
{ "type": "Feature", "properties": { "Utility": "WVAWC - Kanawha Valley District", "Number": "1600", "Address": "Pennsylvania Ave", "City": "Charleston", "State": "WV", "Country": "USA", "Owner": "Private", "addrtype": "route", "addrlocat": "GEOMETRIC_CENTER" }, "geometry": { "type": "Point", "coordinates": [ -81.5935874, 38.3849383 ] } },
{ "type": "Feature", "properties": { "Utility": "WVAWC - Huntington District", "Number": "4002", "Address": "Ohio River Road", "City": "Huntington", "State": "WV", "Country": "USA", "Owner": "Private", "addrtype": "route", "addrlocat": "GEOMETRIC_CENTER" }, "geometry": { "type": "Point", "coordinates": [ -82.3309179, 38.4401914 ] } },
{ "type": "Feature", "properties": { "Utility": "Artesian Water Company", "Number": "664", "Address": "Churchmans Road", "City": "Newark", "State": "DE", "Country": "USA", "Owner": "Private", "addrtype": "route", "addrlocat": "GEOMETRIC_CENTER" }, "geometry": { "type": "Point", "coordinates": [ -75.6642118, 39.6930739 ] } },
{ "type": "Feature", "properties": { "Utility": "City of Escondido", "Number": "201", "Address": "North Broadway", "City": "Escondido", "State": "CA", "Country": "USA", "Owner": "Public", "addrtype": "route", "addrlocat": "GEOMETRIC_CENTER" }, "geometry": { "type": "Point", "coordinates": [ -117.0914714, 33.1656178 ] } },
{ "type": "Feature", "properties": { "Utility": "United Water - New Rochelle", "Number": "2525", "Address": "Palmer Ave", "City": "New Rochelle", "State": "NY", "Country": "USA", "Owner": "Private", "addrtype": "route", "addrlocat": "GEOMETRIC_CENTER" }, "geometry": { "type": "Point", "coordinates": [ -73.7723373, 40.9214714 ] } },
{ "type": "Feature", "properties": { "Utility": "City of Henderson", "Number": "240", "Address": "S Water Street", "City": "Henderson", "State": "NV", "Country": "USA", "Owner": "Public", "addrtype": "route", "addrlocat": "GEOMETRIC_CENTER" }, "geometry": { "type": "Point", "coordinates": [ -114.9812707, 36.0310038 ] } },
{ "type": "Feature", "properties": { "Utility": "MOA Municipality of Anchorage", "Number": "3000", "Address": "Arctic Boulevard", "City": "Anchorage", "State": "AK", "Country": "USA", "Owner": "Public", "addrtype": "route", "addrlocat": "GEOMETRIC_CENTER" }, "geometry": { "type": "Point", "coordinates": [ -149.8979392, 61.1728957 ] } },
{ "type": "Feature", "properties": { "Utility": "Santa Cruz Water Department", "Number": "212", "Address": "Locust Street", "City": "Santa Cruz", "State": "CA", "Country": "USA", "Owner": "Public", "addrtype": "route", "addrlocat": "GEOMETRIC_CENTER" }, "geometry": { "type": "Point", "coordinates": [ -122.0299033, 36.9746289 ] } },
{ "type": "Feature", "properties": { "Utility": "IL American Water - Peoria", "Number": "7500", "Address": "North Harker Drive", "City": "Peoria", "State": "IL", "Country": "USA", "Owner": "Private", "addrtype": "route", "addrlocat": "GEOMETRIC_CENTER" }, "geometry": { "type": "Point", "coordinates": [ -89.6249231, 40.7820594 ] } },
{ "type": "Feature", "properties": { "Utility": "City of San Diego", "Number": "4677", "Address": "Overland Avenue", "City": "San Diego", "State": "CA", "Country": "USA", "Owner": "Public", "addrtype": "route", "addrlocat": "GEOMETRIC_CENTER" }, "geometry": { "type": "Point", "coordinates": [ -117.1310915, 32.8309676 ] } },
{ "type": "Feature", "properties": { "Utility": "IL American Water - Champaign", "Number": "1406", "Address": "West Cardinal Court", "City": "Urbana", "State": "IL", "Country": "USA", "Owner": "Private", "addrtype": "route", "addrlocat": "GEOMETRIC_CENTER" }, "geometry": { "type": "Point", "coordinates": [ -88.2269385, 40.1318445 ] } },
{ "type": "Feature", "properties": { "Utility": "City of Bellevue", "Number": "450", "Address": "110th Avenue NE", "City": "Bellevue", "State": "WA", "Country": "USA", "Owner": "Public", "addrtype": "route", "addrlocat": "GEOMETRIC_CENTER" }, "geometry": { "type": "Point", "coordinates": [ -122.1935842, 47.6228722 ] } },
{ "type": "Feature", "properties": { "Utility": "Seattle Public Utilities", "Number": "700", "Address": "5th Avenue", "City": "Seattle", "State": "WA", "Country": "USA", "Owner": "Public", "addrtype": "route", "addrlocat": "GEOMETRIC_CENTER" }, "geometry": { "type": "Point", "coordinates": [ -122.3355833, 47.6106748 ] } },
{ "type": "Feature", "properties": { "Utility": "SFPUC City Distribution Division", "Number": "525", "Address": "Golden Gate Ave", "City": "San Francisco", "State": "CA", "Country": "USA", "Owner": "Public", "addrtype": "route", "addrlocat": "GEOMETRIC_CENTER" }, "geometry": { "type": "Point", "coordinates": [ -122.4344434, 37.7792586 ] } },
{ "type": "Feature", "properties": { "Utility": "San Francisco Intl Airport", "Number": null, "Address": null, "City": null, "State": "CA", "Country": "USA", "Owner": "Public", "addrtype": "administrative_area_level_1", "addrlocat": "APPROXIMATE" }, "geometry": { "type": "Point", "coordinates": [ -119.4179324, 36.778261 ] } },
{ "type": "Feature", "properties": { "Utility": "NJ American Water - Coastal North", "Number": "310", "Address": "Swimming River Road", "City": "Colts Neck", "State": "NJ", "Country": "USA", "Owner": "Private", "addrtype": "route", "addrlocat": "GEOMETRIC_CENTER" }, "geometry": { "type": "Point", "coordinates": [ -74.1111769, 40.3136171 ] } },
{ "type": "Feature", "properties": { "Utility": "NJ American Water - Short Hills", "Number": "137", "Address": "John F Kennedy Parkway", "City": "Short Hills", "State": "NJ", "Country": "USA", "Owner": "Private", "addrtype": "route", "addrlocat": "GEOMETRIC_CENTER" }, "geometry": { "type": "Point", "coordinates": [ -74.3486559, 40.7436898 ] } },
{ "type": "Feature", "properties": { "Utility": "NJ American Water - Ocean City", "Number": "1005", "Address": "Haven Avenue", "City": "Ocean City", "State": "NJ", "Country": "USA", "Owner": "Private", "addrtype": "route", "addrlocat": "GEOMETRIC_CENTER" }, "geometry": { "type": "Point", "coordinates": [ -74.5914259, 39.2699658 ] } },
{ "type": "Feature", "properties": { "Utility": "NJ American Water - Atlantic County", "Number": "3224", "Address": "Fire Road", "City": "Egg Harbor Township", "State": "NJ", "Country": "USA", "Owner": "Private", "addrtype": "route", "addrlocat": "GEOMETRIC_CENTER" }, "geometry": { "type": "Point", "coordinates": [ -74.5539218, 39.3987202 ] } },
{ "type": "Feature", "properties": { "Utility": "Charlotte County Utilities", "Number": "25550", "Address": "Harbor View Road #1", "City": "Port Charlotte", "State": "FL", "Country": "USA", "Owner": "Public", "addrtype": "establishment", "addrlocat": "ROOFTOP" }, "geometry": { "type": "Point", "coordinates": [ -82.046455, 26.9688599 ] } },
{ "type": "Feature", "properties": { "Utility": "GSWC - Southwest", "Number": null, "Address": null, "City": null, "State": "CA", "Country": "USA", "Owner": "Private", "addrtype": "administrative_area_level_1", "addrlocat": "APPROXIMATE" }, "geometry": { "type": "Point", "coordinates": [ -119.4179324, 36.778261 ] } },
{ "type": "Feature", "properties": { "Utility": "Otay Water District", "Number": "2554", "Address": "Sweetwater Springs Boulevard", "City": "Spring Valley", "State": "CA", "Country": "USA", "Owner": "Public", "addrtype": "route", "addrlocat": "GEOMETRIC_CENTER" }, "geometry": { "type": "Point", "coordinates": [ -116.9715524, 32.733859 ] } },
{ "type": "Feature", "properties": { "Utility": "City of Santa Barbara Water Department", "Number": "630", "Address": "Garden Street", "City": "Santa Barbara", "State": "CA", "Country": "USA", "Owner": "Public", "addrtype": "route", "addrlocat": "GEOMETRIC_CENTER" }, "geometry": { "type": "Point", "coordinates": [ -119.7016915, 34.4269758 ] } },
{ "type": "Feature", "properties": { "Utility": "City of Oceanside", "Number": "300", "Address": "North Coastal Highwawy", "City": "Oceanside", "State": "CA", "Country": "USA", "Owner": "Public", "addrtype": "route", "addrlocat": "GEOMETRIC_CENTER" }, "geometry": { "type": "Point", "coordinates": [ -117.3842788, 33.2032546 ] } },
{ "type": "Feature", "properties": { "Utility": "City of Vallejo", "Number": "555", "Address": "Santa Clara Street", "City": "Vallejo", "State": "CA", "Country": "USA", "Owner": "Public", "addrtype": "route", "addrlocat": "GEOMETRIC_CENTER" }, "geometry": { "type": "Point", "coordinates": [ -122.2598013, 38.1083318 ] } },
{ "type": "Feature", "properties": { "Utility": "City of Wichita Falls", "Number": "402", "Address": "East Scott Avenue", "City": "Wichita Falls", "State": "TX", "Country": "USA", "Owner": "Public", "addrtype": "route", "addrlocat": "GEOMETRIC_CENTER" }, "geometry": { "type": "Point", "coordinates": [ -98.4685029, 33.8992679 ] } },
{ "type": "Feature", "properties": { "Utility": "United Water Toms River", "Number": "1451", "Address": "Route 37 West #5", "City": "Toms River", "State": "NJ", "Country": "USA", "Owner": "Private", "addrtype": "street_address", "addrlocat": "RANGE_INTERPOLATED" }, "geometry": { "type": "Point", "coordinates": [ -74.2020979, 39.9633058 ] } },
{ "type": "Feature", "properties": { "Utility": "Pennichuck Water Works", "Number": "200", "Address": "Concord Street", "City": "Nashua", "State": "NJ", "Country": "USA", "Owner": "Public", "addrtype": "route", "addrlocat": "GEOMETRIC_CENTER" }, "geometry": { "type": "Point", "coordinates": [ -71.4658622, 42.7800615 ] } },
{ "type": "Feature", "properties": { "Utility": "Newton Water Dept- MWRA", "Number": "1000", "Address": "Commonwealth Avenue", "City": "Newton", "State": "MA", "Country": "USA", "Owner": "Public", "addrtype": "route", "addrlocat": "GEOMETRIC_CENTER" }, "geometry": { "type": "Point", "coordinates": [ -71.2048035, 42.3386461 ] } }
]
}
